[
  {
    "name": "Conduit Digital",
    "location": "Tom's River, New Jersey",
    "timezone": "Eastern Time (EST)",
    "lat": 39.9634,
    "lng": -74.1873,
    "logo": "logos/conduit-icon.png",
    "link": "https://conduitdigital.us"
  },
  {
    "name": "2626 Consulting",
    "location": "Chicago, Illinois",
    "timezone": "Central Time (CST)",
    "lat": 41.8781,
    "lng": -87.6298,
    "logo": "logos/2626.png",
    "link": "https://www.consult2626.com"
  },
  {
    "name": "Agency Development Solutions",
    "location": "Louisville, Kentucky",
    "timezone": "Eastern Time (EST)",
    "lat": 38.2527,
    "lng": -85.7585,
    "logo": "logos/agency-dev.png",
    "link": "https://example.com"
  },
  {
    "name": "Ascend Strategy & Design",
    "location": "Valdosta, Georgia",
    "timezone": "Eastern Time (EST)",
    "lat": 30.8327,
    "lng": -83.2785,
    "logo": "logos/ascend.png",
    "link": "https://ascend.digital"
  },
  {
    "name": "Bend Marketing",
    "location": "South Bend, Indiana",
    "timezone": "Eastern Time (EST)",
    "lat": 41.6764,
    "lng": -86.2520,
    "logo": "logos/bend.png",
    "link": "https://bendyourmarketing.com"
  }
]
